     3.04           OBSERVATION DATA    C                   RINEX VERSION / TYPE
sbf2rin-13.8.0                          20230214 013856 UTC PGM / RUN BY / DATE 
BJTU                                                        MARKER NAME         
TL04                                                        MARKER NUMBER       
BDS                                                         MARKER TYPE         
TLAB                BJTU                                    OBSERVER / AGENCY   
3632368             SEPT MOSAIC-T       4.12.1              REC # / TYPE / VERS 
5168                UNKNOW                                  ANT # / TYPE        
 -2144855.4230  4397605.3280  4078049.8619                  APPROX POSITION XYZ 
        0.0000        0.0000        0.0000                  ANTENNA: DELTA H/E/N
C    8 C1P L1P C5P L5P C2I L2I C6I L6I                      SYS / # / OBS TYPES 
SEPTENTRIO RECEIVERS OUTPUT ALIGNED CARRIER PHASES.         COMMENT             
NO FURTHER PHASE SHIFT APPLIED IN THE RINEX ENCODER.        COMMENT             
C L1P  0.00000                                              SYS / PHASE SHIFT   
C L5P  0.00000                                              SYS / PHASE SHIFT   
C L2I                                                       SYS / PHASE SHIFT   
C L6I                                                       SYS / PHASE SHIFT   
    30.000                                                  INTERVAL            
  2022    12     1     0     5   30.0000000     GPS         TIME OF FIRST OBS   
  2022    12     1    13    12   30.0000000     GPS         TIME OF LAST OBS    
    33                                                      # OF SATELLITES     
                                                            END OF HEADER       
> 2022 12 01 00 05 30.0000000  0 16
C01                                                                  37981216.310 8 197778159.92008  37981216.641 8 160710956.85508
C02                                                                  38535691.811 8 200665460.18408  38535692.245 8 163057124.83008
C03                                                                  37670921.580 8 196162374.03208  37670921.951 8 159397998.46808
C04                                                                  38975994.016 8 202958229.89808  38975994.450 8 164920186.21708
C05                                                                  39896879.157 8 207753520.78508  39896879.685 8 168816753.85908
C06  38478238.057 8 202204506.83708  38478245.029 9 150996898.12509  38478244.375 8 200366314.34208  38478244.696 8 162814045.14008
C07  35886448.334 8 188584557.91608  35886455.295 9 140826158.54109  35886454.571 8 186870185.84008  35886454.925 8 151847334.40408
C09  37247621.691 8 195737573.04808  37247628.623 9 146167695.06809  37247627.914 8 193958172.76208  37247628.291 8 157606904.37808
C10  35896560.750 8 188637701.26508  35896567.732 9 140865842.01509  35896567.048 8 186922844.31008  35896567.397 8 151890124.72408
C11  24594653.865 8 129245776.35908  24594660.778 9  96514731.50009  24594659.914 8 128070848.08208  24594660.290 8 104068056.01708
C18  25180303.613 8 132323388.61208  25180310.573 9  98812947.95209  25180309.973 8 131120481.05008  25180310.234 8 106546132.60908
C19  24802573.233 8 130338402.06208  24802580.190 9  97330651.80109  24802579.429 8 129153539.73808  24802579.841 8 104947831.66908
C25  24348137.004 8 127950323.63708  24348143.966 9  95547346.48209  24348143.284 8 126787171.21408  24348143.656 8 103024963.40608
C26  21767221.611 8 114387520.51008  21767228.526 9  85419279.95909  21767227.907 8 113347667.44808  21767228.259 8  92104265.72408
C27  23713863.155 8 124617189.82108  23713870.046 9  93058319.47609  23713869.396 8 123484340.53208  23713869.730 8 100341142.93308
C32  25239827.532 8 132636188.91508  25239834.465 9  99046531.59409  25239833.739 8 131430436.53508  25239834.131 8 106797997.64708
> 2022 12 01 00 06  0.0000000  0 16
C01                                                                  37981129.216 8 197777706.73308  37981129.650 8 160710588.60608
C02                                                                  38535695.044 8 200665475.09108  38535695.187 8 163057136.94108
C03                                                                  37670669.237 8 196161059.59608  37670669.542 8 159396930.38408
C04                                                                  38975945.566 8 202957977.41208  38975945.915 8 164919981.05508
C05                                                                  39896877.771 8 207753513.26808  39896878.124 8 168816747.75508
C06  38487975.252 8 202255676.35008  38487982.244 9 151035109.12409  38487981.572 8 200417018.67808  38487981.920 8 162855246.56708
C07  35887369.572 8 188589399.42908  35887376.583 9 140829773.96209  35887375.844 8 186874983.33008  35887376.225 8 151851232.76108
C09  37243478.877 8 195715802.48908  37243485.826 9 146151437.83509  37243485.135 8 193936600.12808  37243485.476 8 157589374.84508
C10  35897531.008 8 188642799.72708  35897537.960 9 140869649.31209  35897537.271 8 186927896.43208  35897537.653 8 151894229.98508
C11  24607089.355 8 129311125.31708  24607096.301 9  96563531.05009  24607095.499 8 128135602.99608  24607095.800 8 104120674.69308
C18  25179469.196 8 132319003.75508  25179476.143 9  98809673.54509  25179475.492 8 131116136.05608  25179475.854 8 106542601.94608
C19  24817058.026 8 130414520.08208  24817064.964 9  97387493.18109  24817064.307 8 129228965.78608  24817064.623 8 105009121.52008
C25  24335533.862 8 127884093.48608  24335540.805 9  95497888.90609  24335540.091 8 126721543.16308  24335540.459 8 102971635.24508
C26  21765959.378 8 114380887.44308  21765966.291 9  85414326.69809  21765965.651 8 113341094.66808  21765966.024 8  92098924.80008
C27  23724919.804 8 124675292.90408  23724926.720 9  93101708.14409  23724926.056 8 123541915.42008  23724926.389 8 100387927.24608
C32  25219940.553 8 132531681.99408  25219947.461 9  98968490.71209  25219946.650 8 131326879.67508  25219947.126 8 106713849.21308
> 2022 12 01 00 06 30.0000000  0 16
C01                                                                  37981042.091 8 197777253.09708  37981042.530 8 160710219.98908
C02                                                                  38535697.485 8 200665488.93008  38535697.825 8 163057148.19008
C03                                                                  37670415.902 8 196159740.79808  37670416.273 8 159395858.74908
C04                                                                  38975897.076 8 202957724.86108  38975897.434 8 164919775.83408
C05                                                                  39896876.300 8 207753505.60708  39896876.725 8 168816741.53108
C06  38497725.367 8 202306913.66608  38497732.393 9 151073370.76209  38497731.694 8 200467790.20608  38497732.045 8 162896502.59408
C07  35888290.226 8 188594237.17208  35888297.232 9 140833386.56109  35888296.536 8 186879777.09608  35888296.811 8 151855128.08408
C09  37239355.157 8 195694132.50308  37239362.167 9 146135255.70109  37239361.520 8 193915127.15208  37239361.827 8 157571926.30008
C10  35898521.895 8 188648007.10508  35898528.883 9 140873537.93809  35898528.264 8 186933056.47108  35898528.564 8 151898422.94208
C11  24619577.479 8 129376750.93308  24619584.411 9  96612537.19409  24619583.710 8 128200632.05308  24619583.934 8 104173516.12708
C18  25178725.774 8 132315096.89408  25178732.690 9  98806756.08509  25178732.108 8 131112264.70808  25178732.376 8 106539456.16308
C19  24831579.639 8 130490831.91208  24831586.616 9  97444479.28609  24831585.928 8 129304583.88708  24831586.276 8 105070567.42008
C25  24322943.817 8 127817932.56308  24322950.793 9  95448483.02009  24322950.161 8 126655983.70608  24322950.456 8 102918362.81508
C26  21764734.231 8 114374449.25708  21764741.186 9  85409518.96209  21764740.559 8 113334714.99208  21764740.878 8  92093740.79108
C27  23735999.486 8 124733517.04008  23736006.405 9  93145187.21009  23736005.761 8 123599610.25408  23736006.106 8 100434809.03108
C32  25200059.069 8 132427204.45908  25200066.057 9  98890471.77109  25200065.425 8 131223351.93808  25200065.727 8 106629724.44608
> 2022 12 01 00 07  0.0000000  0 16
C01                                                                  37980954.984 8 197776799.06808  37980955.302 8 160709851.05408
C02                                                                  38535699.931 8 200665501.76608  38535700.338 8 163057158.61508
C03                                                                  37670161.811 8 196158417.69208  37670162.178 8 159394783.62008
C04                                                                  38975848.617 8 202957472.28508  38975848.953 8 164919570.60208
C05                                                                  39896874.918 8 207753497.87608  39896875.222 8 168816735.24708
C06  38507488.378 8 202358218.40008  38507495.355 9 151111682.73709  38507494.595 8 200518628.53108  38507495.030 8 162937812.89808
C07  35889210.107 8 188599070.94008  35889217.024 9 140836996.19509  35889216.319 8 186884566.90908  35889216.635 8 151859020.20608
C09  37235250.613 8 195672562.98808  37235257.614 9 146119148.60009  37235256.916 8 193893753.72608  37235257.284 8 157554558.63908
C10  35899533.614 8 188653323.80008  35899540.637 9 140877508.20109  35899539.923 8 186938324.83908  35899540.294 8 151902703.92208
C11  24632117.801 8 129442650.89808  24632124.791 9  96661748.20809  24632123.883 8 128265932.96608  24632124.286 8 104226578.46708
C18  25178073.226 8 132311667.85008  25178080.181 9  98804195.43609  25178079.538 8 131108866.83408  25178079.854 8 106536695.11308
C19  24846137.761 8 130567335.10708  24846144.702 9  97501608.29709  24846143.923 8 129380391.61108  24846144.376 8 105132167.40508
C25  24310367.017 8 127751841.21408  24310374.027 9  95399129.09109  24310373.238 8 126590493.19008  24310373.691 8 102865146.40508
C26  21763546.199 8 114368206.29808  21763553.169 9  85404857.01209  21763552.554 8 113328528.76408  21763552.862 8  92088713.97708
C27  23747102.152 8 124791862.28808  23747109.141 9  93188756.71609  23747108.518 8 123657425.10908  23747108.833 8 100481788.33408
C32  25180183.783 8 132322758.73808  25180190.737 9  98812476.59609  25180190.037 8 131119855.72308  25180190.354 8 106545625.29608
> 2022 12 01 00 07 30.0000000  0 16
C01                                                                  37980867.707 8 197776344.60108  37980868.029 8 160709481.76608
C02                                                                  38535702.077 8 200665513.52808  38535702.516 8 163057168.17808
C03                                                                  37669906.924 8 196157090.23608  37669907.291 8 159393704.95408
C04                                                                  38975800.100 8 202957219.65608  38975800.440 8 164919365.32008
C05                                                                  39896873.442 8 207753490.00208  39896873.733 8 168816728.85408
C06  38517264.098 8 202409590.03508  38517271.041 9 151150044.67609  38517270.424 8 200569533.15508  38517270.727 8 162979177.07508
C07  35890129.080 8 188603900.41408  35890136.052 9 140840602.61709  35890135.298 8 186889352.47708  35890135.657 8 151862908.86708
C09  37231165.189 8 195651093.72408  37231172.163 9 146103116.35609  37231171.454 8 193872479.65008  37231171.821 8 157537271.71008
C10  35900566.306 8 188658750.11108  35900573.211 9 140881560.31309  35900572.601 8 186943701.81508  35900572.859 8 151907073.16408
C11  24644709.908 8 129508822.79408  24644716.878 9  96711162.28409  24644716.060 8 128331503.33408  24644716.403 8 104279859.76308
C18  25177511.565 8 132308716.31308  25177518.515 9  98801991.36909  25177517.849 8 131105942.13508  25177518.227 8 106534318.55308
C19  24860731.667 8 130644027.11008  24860738.724 9  97558878.30109  24860738.015 8 129456386.43008  24860738.365 8 105193919.41908
C25  24297803.577 8 127685819.68908  24297810.526 9  95349827.30709  24297809.828 8 126525071.87208  24297810.243 8 102811986.22708
C26  21762395.382 8 114362158.80308  21762402.371 9  85400341.02409  21762401.734 8 113322536.23908  21762402.076 8  92083844.56108
C27  23758227.932 8 124850328.61008  23758234.909 9  93232416.62609  23758234.334 8 123715359.91908  23758234.610 8 100528865.11408
C32  25160314.862 8 132218347.16308  25160321.850 9  98734506.91409  25160321.117 8 131016393.34508  25160321.476 8 106461553.63708
> 2022 12 01 00 08  0.0000000  0 16
C01                                                                  37980780.336 8 197775889.73408  37980780.680 8 160709112.14908
C02                                                                  38535704.286 8 200665524.27008  38535704.582 8 163057176.90508
C03                                                                  37669651.116 8 196155758.47108  37669651.537 8 159392622.78708
C04                                                                  38975751.457 8 202956966.99308  38975751.927 8 164919160.00808
C05                                                                  39896871.837 8 207753482.03708  39896872.244 8 168816722.38308
C06  38527052.451 8 202461028.17108  38527059.402 9 151188456.27109  38527058.708 8 200620503.67008  38527059.076 8 163020594.79908
C07  35891047.256 8 188608725.37208  35891054.205 9 140844205.67609  35891053.474 8 186894133.56208  35891053.835 8 151866793.89608
C09  37227098.744 8 195629724.59008  37227105.758 9 146087158.89309  37227105.033 8 193851304.79308  37227105.409 8 157520065.40608
C10  35901619.750 8 188664286.40708  35901626.749 9 140885694.56309  35901625.990 8 186949187.79208  35901626.435 8 151911530.96508
C11  24657353.264 8 129575264.28508  24657360.273 9  96760777.68709  24657359.479 8 128397340.84308  24657359.804 8 104333358.13508
C18  25177040.691 8 132306242.06308  25177047.709 9  98800143.71709  25177046.991 8 131103490.37508  25177047.344 8 106532326.29908
C19  24875361.210 8 130720905.45708  24875368.146 9  97616287.45609  24875367.446 8 129532565.89108  24875367.860 8 105255821.47508
C25  24285253.479 8 127619868.35308  24285260.420 9  95300577.93209  24285259.649 8 126459720.09408  24285260.101 8 102758882.55808
C26  21761281.861 8 114356307.12308  21761288.823 9  85395971.26409  21761288.186 8 113316737.73908  21761288.535 8  92079132.80308
C27  23769376.792 8 124908916.03308  23769383.715 9  93276166.97909  23769382.998 8 123773414.74008  23769383.386 8 100576039.41608
C32  25140453.014 8 132113972.15608  25140459.929 9  98656564.53709  25140459.226 8 130912967.20308  25140459.599 8 106377511.42608
> 2022 12 01 00 08 30.0000000  0 16
C01                                                                  37980692.884 8 197775434.43308  37980693.264 8 160708742.17508
C02                                                                  38535706.173 8 200665533.94908  38535706.473 8 163057184.77808
C03                                                                  37669394.624 8 196154422.37808  37669394.928 8 159391537.10008
C04                                                                  38975703.030 8 202956714.27908  38975703.392 8 164918954.66208
C05                                                                  39896870.299 8 207753473.95108  39896870.670 8 168816715.81108
C06  38536853.377 8 202512532.31808  38536860.337 9 151226917.16009  38536859.581 8 200671539.60208  38536859.987 8 163062065.67008
C07  35891964.487 8 188613545.53008  35891971.437 9 140847805.14109  35891970.809 8 186898909.89508  35891971.070 8 151870675.05408
C09  37223051.375 8 195608455.40808  37223058.357 9 146071276.05409  37223057.659 8 193830228.96708  37223058.024 8 157502939.57208
C10  35902694.283 8 188669933.01308  35902701.250 9 140889911.18309  35902700.540 8 186954783.06608  35902700.948 8 151916077.58408
C11  24670047.561 8 129641972.96608  24670054.519 9  96810592.61209  24670053.712 8 128463443.11408  24670054.037 8 104387071.64308
C18  25176660.659 8 132304244.77608  25176667.616 9  98798652.23509  25176666.882 8 131101511.24608  25176667.277 8 106530718.08808
C19  24890025.582 8 130797967.61108  24890032.585 9  97673833.86909  24890031.987 8 129608927.48508  24890032.288 8 105317871.53108
C25  24272716.717 8 127553987.48708  24272723.676 9  95251381.18009  24272723.080 8 126394438.15308  24272723.390 8 102705835.62708
C26  21760205.576 8 114350651.52508  21760212.596 9  85391747.93209  21760211.944 8 113311133.54108  21760212.292 8  92074578.93908
C27  23780548.623 8 124967624.55408  23780555.586 9  93320007.75709  23780554.880 8 123831589.55708  23780555.275 8 100623311.21908
C32  25120598.453 8 132009636.07608  25120605.445 9  98578651.23209  25120604.774 8 130809579.62808  25120605.120 8 106293500.55408
> 2022 12 01 00 09  0.0000000  0 16
C01                                                                  37980605.406 7 197774978.72707  37980605.741 8 160708371.87408
C02                                                                  38535707.864 7 200665542.60007  38535708.186 8 163057191.79708
C03                                                                  37669137.192 7 196153081.97807  37669137.528 8 159390447.91008
C04                                                                  38975654.486 7 202956461.53807  38975654.840 8 164918749.27808
C05                                                                  39896868.698 7 207753465.75907  39896869.056 8 168816709.14708
C06  38546666.743 8 202564102.04608  38546673.682 9 151265427.01909  38546672.961 7 200722640.51507  38546673.395 8 163103589.34208
C07  35892880.775 8 188618360.64008  35892887.734 9 140851400.83909  35892886.998 7 186903681.22507  35892887.353 8 151874552.15008
C09  37219023.018 8 195587286.01208  37219029.948 9 146055467.74009  37219029.291 7 193809252.02507  37219029.601 8 157485894.08408
C10  35903789.869 8 188675690.28408  35903796.803 9 140894210.44009  35903796.116 7 186960488.00207  35903796.482 8 151920713.30508
C11  24682792.177 8 129708946.47108  24682799.138 9  96860605.29109  24682798.253 7 128529807.80307  24682798.687 8 104440998.38408
C18  25176371.285 8 132302724.16308  25176378.250 9  98797516.71309  25176377.585 7 131100004.45607  25176377.913 8 106529493.70008
C19  24904724.607 8 130875211.07908  24904731.507 9  97731515.68209  24904730.924 7 129685468.75807  24904731.209 8 105380067.57808
C25  24260193.473 8 127488177.42008  24260200.468 9  95202237.29809  24260199.762 7 126329226.36207  24260200.153 8 102652845.70508
C26  21759166.844 8 114345192.33508  21759173.749 9  85387671.26109  21759173.054 7 113305723.96707  21759173.431 8  92070183.21108
C27  23791743.486 8 125026454.19108  23791750.483 9  93363938.97609  23791749.758 7 123889884.38907  23791750.161 8 100670680.54108
C32  25100751.854 8 131905341.32908  25100758.806 9  98500768.78809  25100758.053 7 130706233.01107  25100758.444 8 106209522.95708
> 2022 12 01 00 09 30.0000000  0 16
C01                                                                  37980517.802 8 197774522.59308  37980518.147 8 160708001.22808
C02                                                                  38535709.174 8 200665550.18208  38535709.653 8 163057197.96608
C03                                                                  37668878.916 8 196151737.25508  37668879.301 8 159389355.21208
C04                                                                  38975605.955 8 202956208.73408  38975606.291 8 164918543.85408
C05                                                                  39896867.173 8 207753457.44108  39896867.415 8 168816702.39108
C06  38556492.562 8 202615736.86708  38556499.494 9 151303985.49009  38556498.845 8 200773805.93108  38556499.166 8 163145165.43608
C07  35893796.060 8 188623170.42808  35893803.030 9 140854992.56009  35893802.175 8 186908447.28308  35893802.650 8 151878424.96308
C09  37215013.560 8 195566216.21708  37215020.499 9 146039733.80209  37215019.932 8 193788373.78308  37215020.159 8 157468928.80208
C10  35904906.506 8 188681558.53408  35904913.512 9 140898592.57509  35904912.743 8 186966302.90708  35904913.195 8 151925438.39208
C11  24695586.698 8 129776182.38308  24695593.715 9  96910813.92509  24695592.816 8 128596432.51008  24695593.272 8 104495136.41608
C18  25176172.609 8 132301679.88708  25176179.531 9  98796736.89309  25176178.893 8 131098969.67008  25176179.206 8 106528652.85108
C19  24919457.484 8 130952633.33808  24919464.518 9  97789331.00009  24919463.802 8 129762187.18508  24919464.214 8 105442407.58508
C25  24247683.782 8 127422438.46908  24247690.762 9  95153146.52109  24247690.151 8 126264085.03508  24247690.448 8 102599913.04908
C26  21758165.364 8 114339929.84008  21758172.337 9  85383741.47509  21758171.727 8 113300509.30108  21758172.032 8  92065945.86808
C27  23802961.526 8 125085404.93208  23802968.442 9  93407960.63509  23802967.763 8 123948299.22408  23802968.139 8 100718147.37908
C32  25080913.491 8 131801090.28108  25080920.482 9  98422918.97909  25080919.796 8 130602929.70308  25080920.156 8 106125580.55808
> 2022 12 01 00 10  0.0000000  0 16
C01                                                                  37980430.158 8 197774066.05908  37980430.449 8 160707630.25608
C02                                                                  38535710.480 8 200665556.74108  38535710.860 8 163057203.28908
C03                                                                  37668619.839 8 196150388.24108  37668620.219 8 159388259.02708
C04                                                                  38975557.398 8 202955955.91008  38975557.720 8 164918338.41608
C05                                                                  39896865.523 8 207753449.01308  39896865.845 8 168816695.54708
C06  38566330.561 8 202667436.36108  38566337.580 9 151342592.25709  38566336.838 8 200825035.42708  38566337.256 8 163186793.59808
C07  35894710.290 8 188627974.66008  35894717.206 9 140858580.14509  35894716.540 8 186913207.84008  35894716.823 8 151882293.30508
C09  37211023.047 8 195545245.88708  37211029.950 9 146024074.14409  37211029.298 8 193767594.09808  37211029.647 8 157452043.60608
C10  35906044.424 8 188687538.13208  35906051.408 9 140903057.86409  35906050.780 8 186972228.14308  35906051.044 8 151930253.13608
C11  24708430.786 8 129843678.33908  24708437.747 9  96961216.75609  24708436.849 8 128663314.89208  24708437.324 8 104549483.83708
C18  25176064.398 8 132301111.62608  25176071.367 9  98796312.54209  25176070.655 8 131098406.56808  25176071.054 8 106528195.29208
C19  24934224.020 8 131030231.89808  24934231.018 9  97847277.98209  24934230.384 8 129839080.31408  24934230.711 8 105504889.55208
C25  24235187.722 8 127356770.97908  24235194.644 9  95104109.11609  24235193.939 8 126199014.53208  24235194.339 8 102547037.93108
C26  21757201.441 8 114334864.37608  21757208.404 9  85379958.82609  21757207.788 8 113295489.87608  21757208.098 8  92061867.17108
C27  23814202.472 8 125144476.81808  23814209.431 9  93452072.75909  23814208.753 8 124006834.09908  23814209.136 8 100765711.75908
C32  25061084.028 8 131696885.36508  25061090.961 9  98345103.62009  25061090.191 8 130499672.10108  25061090.618 8 106041675.29708
> 2022 12 01 00 10 30.0000000  0 16
C01                                                                  37980342.286 8 197773609.09808  37980342.716 8 160707258.93808
C02                                                                  38535711.463 8 200665562.23308  38535711.862 8 163057207.75008
C03                                                                  37668359.997 8 196149034.91308  37668360.320 8 159387159.34308
C04                                                                  38975508.765 8 202955703.02708  38975509.159 8 164918132.92608
C05                                                                  39896863.792 8 207753440.46608  39896864.244 8 168816688.58908
C06  38576180.959 8 202719200.03108  38576187.866 9 151381246.94609  38576187.164 8 200876328.51708  38576187.573 8 163228473.43308
C07  35895623.352 8 188632773.06208  35895630.339 9 140862163.36409  35895629.562 8 186917962.61208  35895629.930 8 151886156.94908
C09  37207051.310 8 195524374.81408  37207058.344 9 146008488.60309  37207057.666 8 193746912.76708  37207058.016 8 157435238.32808
C10  35907203.542 8 188693629.38008  35907210.506 9 140907606.52309  35907209.898 8 186978264.02508  35907210.189 8 151935157.78008
C11  24721323.864 8 129911431.91008  24721330.837 9  97011811.95309  24721330.055 8 128730452.55608  24721330.413 8 104604038.68108
C18  25176046.771 8 132301018.99108  25176053.753 9  98796243.36809  25176052.975 8 131098314.77408  25176053.435 8 106528120.69708
C19  24949023.608 8 131108004.21208  24949030.602 9  97905354.71209  24949029.815 8 129916145.62308  24949030.290 8 105567511.42608
C25  24222705.225 8 127291175.25808  24222712.207 9  95055125.29809  24222711.557 8 126134015.13508  24222711.878 8 102494220.59908
C26  21756275.086 8 114329996.23108  21756282.043 9  85376323.52509  21756281.352 8 113290665.97508  21756281.730 8  92057947.36008
C27  23825466.545 8 125203669.82808  23825473.488 9  93496275.33309  23825472.845 8 124065488.99508  23825473.197 8 100813373.67108
C32  25041263.666 8 131592728.93208  25041270.642 9  98267324.46909  25041269.894 8 130396462.54708  25041270.291 8 105957809.08108
> 2022 12 01 00 11  0.0000000  0 16
C01                                                                  37980254.477 8 197773151.73108  37980254.893 8 160706887.29408
C02                                                                  38535712.362 8 200665566.68308  38535712.787 8 163057211.37508
C03                                                                  37668099.293 8 196147677.30408  37668099.611 8 159386056.17308
C04                                                                  38975460.194 8 202955450.11508  38975460.632 8 164917927.42108
C05                                                                  39896862.214 8 207753431.80408  39896862.599 8 168816681.55608
C06  38586043.350 8 202771027.44408  38586050.311 9 151419949.22909  38586049.630 8 200927684.77208  38586050.002 8 163270204.60008
C07  35896535.273 8 188637565.39608  35896542.301 9 140865742.05609  35896541.581 8 186922711.37908  35896541.923 8 151890015.71208
C09  37203098.612 8 195503602.85308  37203105.578 9 145992977.07009  37203104.944 8 193726329.65308  37203105.273 8 157418512.86408
C10  35908383.971 8 188699832.64308  35908390.975 9 140912238.82809  35908390.308 8 186984410.89408  35908390.659 8 151940152.61908
C11  24734265.489 8 129979440.71008  24734272.478 9  97062597.74109  24734271.691 8 128797843.12408  24734272.066 8 104658799.03908
C18  25176119.560 8 132301401.62008  25176126.594 9  98796529.09809  25176125.956 8 131098693.92908  25176126.256 8 106528428.79408
C19  24963855.767 8 131185947.80108  24963862.786 9  97963559.33309  24963862.147 8 129993380.64108  24963862.479 8 105630271.20308
C25  24210236.575 8 127225651.67108  24210243.477 9  95006195.34109  24210242.828 8 126069087.22408  24210243.194 8 102441461.35008
C26  21755386.322 8 114325325.74908  21755393.288 9  85372835.82109  21755392.577 8 113286037.93808  21755392.952 8  92054186.70308
C27  23836753.652 8 125262984.00008  23836760.636 9  93540568.37909  23836760.052 8 124124263.95108  23836760.296 8 100861133.13808
C32  25021453.031 8 131488623.41708  25021460.015 9  98189583.33509  25021459.343 8 130293303.44208  25021459.689 8 105873983.86108
> 2022 12 01 00 11 30.0000000  0 16
C01                                                                  37980166.632 8 197772693.97108  37980166.972 8 160706515.32808
C02                                                                  38535712.943 8 200665570.10008  38535713.395 8 163057214.14708
C03                                                                  37667837.707 8 196146315.41608  37667838.092 8 159384949.53008
C04                                                                  38975411.735 8 202955197.17808  38975412.053 8 164917721.88608
C05                                                                  39896860.564 8 207753423.03508  39896860.895 8 168816674.43608
C06  38595917.804 8 202822918.13508  38595924.740 9 151458698.77509  38595924.073 8 200979103.73408  38595924.446 8 163311986.71908
C07  35897446.098 8 188642351.42308  35897453.034 9 140869316.03209  35897452.227 8 186927453.89108  35897452.659 8 151893869.39108
C09  37199164.643 8 195482929.83508  37199171.661 9 145977539.42809  37199170.919 8 193705844.57308  37199171.288 8 157401867.06108
C10  35909585.770 8 188706148.25908  35909592.783 9 140916955.03409  35909592.148 8 186990669.09608  35909592.452 8 151945237.92008
C11  24747255.232 8 130047702.33208  24747262.225 9  97113572.33109  24747261.603 8 128865484.20908  24747261.815 8 104713762.96708
C18  25176282.784 8 132302259.12908  25176289.779 9  98797169.44609  25176289.098 8 131099543.64308  25176289.440 8 106529119.25508
C19  24978720.080 8 131264060.13708  24978727.054 9  98021889.97609  24978726.399 8 130070782.87208  24978726.749 8 105693166.86008
C25  24197781.607 8 127160200.55908  24197788.536 9  94957319.51109  24197787.846 8 126004231.11508  24197788.235 8 102388760.45008
C26  21754535.237 8 114320853.24408  21754542.153 9  85369495.96709  21754541.541 8 113281606.08108  21754541.857 8  92050585.45708
C27  23848063.803 8 125322419.34608  23848070.790 9  93584951.91909  23848070.107 8 124183158.98408  23848070.466 8 100908990.17308
C32  25001652.655 8 131384571.22308  25001659.549 9  98111882.02009  25001658.834 8 130190197.17608  25001659.218 8 105790201.57508
> 2022 12 01 00 12  0.0000000  0 16
C01                                                                  37980078.626 8 197772235.79908  37980078.975 8 160706143.02308
C02                                                                  38535713.391 8 200665572.45608  38535713.834 8 163057216.05908
C03                                                                  37667575.348 8 196144949.24708  37667575.724 8 159383839.40108
C04                                                                  38975363.110 8 202954944.19008  38975363.473 8 164917516.31408
C05                                                                  39896858.708 8 207753414.14608  39896859.151 8 168816667.20908
C06  38605804.188 8 202874871.62708  38605811.209 9 151497495.21209  38605810.460 8 201030584.92008  38605810.878 8 163353819.39908
C07  35898355.558 8 188647130.86908  35898362.544 9 140872885.09709  35898361.755 8 186932189.87908  35898362.140 8 151897717.76908
C09  37195249.498 8 195462355.55708  37195256.483 9 145962175.51709  37195255.785 8 193685457.34008  37195256.152 8 157385300.76308
C10  35910809.050 8 188712576.53308  35910816.055 9 140921755.36609  35910815.400 8 186997038.93208  35910815.714 8 151950413.93308
C11  24760292.626 8 130116214.34608  24760299.625 9  97164733.89409  24760298.884 8 128933373.41108  24760299.213 8 104768928.50408
C18  25176536.253 8 132303591.08308  25176543.216 9  98798164.08709  25176542.512 8 131100863.48808  25176542.893 8 106530191.73208
C19  24993615.977 8 131342338.69408  24993622.962 9  98080344.74309  24993622.284 8 130148349.81608  24993622.664 8 105756196.35208
C25  24185340.533 8 127094822.24208  24185347.466 9  94908498.04109  24185346.789 8 125939447.15608  24185347.165 8 102336118.17608
C26  21753721.888 8 114316579.02408  21753728.815 9  85366304.17809  21753728.206 8 113277370.71408  21753728.499 8  92047143.86808
C27  23859397.020 8 125381975.85908  23859404.041 9  93629425.93209  23859403.354 8 124242174.08108  23859403.695 8 100956944.77008
C32  24981862.695 8 131280574.73008  24981869.675 9  98034222.30309  24981868.992 8 130087146.10708  24981869.312 8 105706464.13708
> 2022 12 01 00 12 30.0000000  0 16
C01                                                                  37979990.634 8 197771777.23008  37979990.956 8 160705770.40208
C02                                                                  38535713.672 8 200665573.77808  38535714.115 8 163057217.13608
C03                                                                  37667312.113 8 196143578.81208  37667312.534 8 159382725.81808
C04                                                                  38975314.495 8 202954691.19608  38975314.840 8 164917310.73508
C05                                                                  39896857.130 8 207753405.15708  39896857.403 8 168816659.91008
C06  38615702.516 8 202926887.48108  38615709.491 9 151536338.22409  38615708.769 8 201082127.90408  38615709.192 8 163395702.29508
C07  35899263.739 8 188651903.50308  35899270.743 9 140876449.08609  35899270.011 8 186936919.13108  35899270.341 8 151901560.67308
C09  37191353.092 8 195441879.87408  37191360.091 9 145946885.23909  37191359.374 8 193665167.80308  37191359.766 8 157368813.85708
C10  35912053.800 8 188719117.82408  35912060.798 9 140926640.10109  35912060.189 8 187003520.76108  35912060.492 8 151955680.95208
C11  24773377.260 8 130184974.34908  24773384.244 9  97216080.65709  24773383.486 8 129001508.35408  24773383.795 8 104824293.72408
C18  25176879.942 8 132305397.07208  25176886.855 9  98799512.71709  25176886.187 8 131102653.05708  25176886.585 8 106531645.90708
C19  25008543.014 8 131420780.97708  25008550.038 9  98138921.77409  25008549.305 8 130226078.98608  25008549.733 8 105819357.67708
C25  24172913.335 8 127029517.10708  24172920.304 9  94859731.22309  24172919.679 8 125874735.70408  24172920.016 8 102283534.82308
C26  21752946.295 8 114312503.44508  21752953.265 9  85363260.72909  21752952.545 8 113273332.16708  21752952.947 8  92043862.22608
C27  23870753.347 8 125441653.58108  23870760.308 9  93673990.47109  23870759.588 8 124301309.28208  23870760.007 8 101004996.97008
C32  24962083.900 8 131176636.37608  24962090.872 9  97956606.00109  24962090.205 8 129984152.64408  24962090.517 8 105622773.52008
> 2022 12 01 00 13  0.0000000  0 16
C01                                                                  37979902.449 8 197771318.26408  37979902.807 8 160705397.45608
C02                                                                  38535713.744 8 200665574.04808  38535714.151 8 163057217.35808
C03                                                                  37667048.198 8 196142204.11108  37667048.542 8 159381608.75808
C04                                                                  38975265.871 8 202954438.15508  38975266.242 8 164917105.11808
C05                                                                  39896855.408 8 207753396.04608  39896855.672 8 168816652.50108
C06  38625612.567 8 202978965.20708  38625619.530 9 151575227.43009  38625618.882 8 201133732.19208  38625619.232 8 163437635.01008
C07  35900170.599 8 188656669.07408  35900177.583 9 140880007.78709  35900176.836 8 186941641.37408  35900177.226 8 151905397.88008
C09  37187475.411 8 195421502.57708  37187482.439 9 145931668.42409  37187481.735 8 193644975.76008  37187482.092 8 157352406.16708
C10  35913320.209 8 188725772.44008  35913327.147 9 140931609.45509  35913326.465 8 187010114.88308  35913326.815 8 151961039.21708
C11  24786508.624 8 130253979.89908  24786515.555 9  97267610.77309  24786514.813 8 129069886.60908  24786515.140 8 104879856.65608
C18  25177313.641 8 132307676.62508  25177320.668 9  98801214.97809  25177320.028 8 131104911.88308  25177320.371 8 106533481.39208
C19  25023500.795 8 131499384.43908  25023507.777 9  98197619.16409  25023507.059 8 130303967.88808  25023507.483 8 105882648.78208
C25  24160500.168 8 126964285.48008  24160507.132 9  94811019.29009  24160506.525 8 125810097.09908  24160506.850 8 102231010.66008
C26  21752208.524 8 114308626.80408  21752215.571 9  85360365.83009  21752214.868 8 113269490.76508  21752215.248 8  92040740.77108
C27  23882132.689 8 125501452.50308  23882139.660 9  93718645.50809  23882139.042 8 124360564.58208  23882139.347 8 101053146.75408
C32  24942316.590 8 131072758.54608  24942323.547 9  97879034.89009  24942322.814 8 129881219.15408  24942323.212 8 105539131.62608
> 2022 12 01 00 13 30.0000000  0 16
C01                                                                  37979814.183 7 197770858.89207  37979814.586 8 160705024.17808
C02                                                                  38535713.569 7 200665573.26307  38535714.035 8 163057216.72008
C03                                                                  37666783.335 7 196140825.13407  37666783.733 8 159380488.22908
C04                                                                  38975217.246 7 202954185.07507  38975217.631 8 164916899.47508
C05                                                                  39896853.566 7 207753386.81107  39896853.919 8 168816644.99708
C06  38635534.295 8 203031104.33808  38635541.277 9 151614162.49309  38635540.576 7 201185397.33407  38635540.973 8 163479617.16708
C07  35901076.145 8 188661427.32508  35901083.064 9 140883561.02509  35901082.234 7 186946356.36807  35901082.664 8 151909229.19608
C09  37183616.429 8 195401223.49008  37183623.460 9 145916524.94509  37183622.691 7 193624881.03407  37183623.118 8 157336077.55108
C10  35914608.114 8 188732540.71208  35914615.085 9 140936663.68309  35914614.458 7 187016821.62807  35914614.791 8 151966488.99108
C11  24799686.165 8 130323228.56508  24799693.158 9  97319322.44009  24799692.372 7 129138505.76907  24799692.743 8 104935615.34508
C18  25177837.504 8 132310429.26808  25177844.487 9  98803270.52209  25177843.819 7 131107639.50707  25177844.154 8 106535697.80208
C19  25038488.766 8 131578146.56508  25038495.684 9  98256435.03509  25038495.062 7 130382013.99607  25038495.403 8 105946067.64108
C25  24148101.077 8 126899127.72408  24148108.001 9  94762362.52509  24148107.387 7 125745531.68907  24148107.735 8 102178545.97508
C26  21751508.789 8 114304949.44108  21751515.769 9  85357619.74709  21751515.139 7 113265846.82407  21751515.458 8  92037779.76908
C27  23893535.091 8 125561372.64008  23893542.089 9  93763391.06409  23893541.407 7 124419939.99407  23893541.808 8 101101394.14008
C32  24922561.216 8 130968943.64508  24922568.272 9  97801510.77509  24922567.562 7 129778348.02907  24922567.915 8 105455540.40608
> 2022 12 01 00 14  0.0000000  0 16
C01                                                                  37979725.864 7 197770399.15107  37979726.276 8 160704650.59308
C02                                                                  38535713.221 7 200665571.45507  38535713.646 8 163057215.25008
C03                                                                  37666517.734 7 196139441.94007  37666518.087 8 159379364.26308
C04                                                                  38975168.707 8 202953931.99808  38975169.056 8 164916693.81808
C05                                                                  39896851.724 7 207753377.49107  39896852.144 8 168816637.42008
C06  38645467.675 8 203083304.43108  38645474.633 9 151653143.08609  38645473.843 8 201237122.88508  38645474.317 8 163521648.40908
C07  35901980.107 8 188666178.04908  35901987.108 9 140887108.64309  35901986.395 8 186951063.89908  35901986.704 8 151913054.45108
C09  37179776.138 8 195381042.45808  37179783.104 9 145901454.69909  37179782.402 7 193604883.47107  37179782.778 8 157319827.89008
C10  35915917.751 8 188739422.99608  35915924.745 9 140941803.05309  35915924.035 7 187023641.34307  35915924.425 8 151972030.57208
C11  24812909.560 8 130392717.95008  24812916.540 9  97371213.86409  24812915.739 8 129207363.45708  24812916.096 8 104991567.85308
C18  25178451.222 8 132313654.54708  25178458.226 9  98805679.01209  25178457.540 7 131110835.46607  25178457.910 8 106538294.78608
C19  25053506.397 8 131657064.86308  25053513.389 9  98315367.53209  25053512.585 7 130460214.86207  25053513.065 8 106009612.24708
C25  24135716.043 8 126834044.23708  24135723.063 9  94713761.22109  24135722.423 7 125681039.87007  24135722.767 8 102126141.08808
C26  21750847.054 8 114301471.71708  21750853.982 9  85355022.74509  21750853.395 7 113262400.70707  21750853.682 8  92034979.51308
C27  23904960.577 8 125621414.03608  23904967.593 9  93808227.17609  23904966.923 7 124479435.56407  23904967.280 8 101149739.16208
C32  24902818.421 8 130865194.12608  24902825.366 9  97724035.48809  24902824.648 7 129675541.68507  24902825.022 8 105372001.83108
> 2022 12 01 00 14 30.0000000  0 16
C01                                                                  37979637.559 8 197769938.99508  37979637.903 8 160704276.68608
C02                                                                  38535712.617 8 200665568.58508  38535713.118 8 163057212.91108
C03                                                                  37666251.279 8 196138054.47508  37666251.646 8 159378236.83508
C04                                                                  38975120.190 8 202953678.86608  38975120.472 8 164916488.13908
C05                                                                  39896849.863 8 207753368.03608  39896850.293 8 168816629.74208
C06  38655412.564 8 203135564.98308  38655419.494 9 151692168.82109  38655418.810 8 201288908.33708  38655419.166 8 163563728.33808
C07  35902882.652 8 188670920.95808  35902889.623 9 140890650.42709  35902888.871 8 186955763.68708  35902889.243 8 151916873.42008
C09  37175954.458 8 195360959.25708  37175961.401 9 145886457.50009  37175960.763 8 193584982.84408  37175961.077 8 157303657.00608
C10  35917249.180 8 188746419.57608  35917256.146 9 140947027.76809  35917255.513 8 187030574.32208  35917255.811 8 151977664.18408
C11  24826178.268 8 130462445.57108  24826185.231 9  97423283.18709  24826184.485 8 129276457.20908  24826184.856 8 105047712.19208
C18  25179154.864 8 132317351.92508  25179161.808 9  98808440.03409  25179161.170 8 131114499.22408  25179161.510 8 106541271.88608
C19  25068553.305 8 131736136.77008  25068560.244 9  98374414.73309  25068559.539 8 130538567.93608  25068559.965 8 106073280.54308
C25  24123345.350 8 126769035.34408  24123352.267 9  94665215.61609  24123351.556 8 125616621.96608  24123351.984 8 102073796.26608
C26  21750223.306 8 114298193.92708  21750230.223 9  85352575.04509  21750229.498 8 113259152.70808  21750229.898 8  92032340.25308
C27  23916409.183 8 125681576.67108  23916416.146 9  93853153.81509  23916415.412 8 124539051.27008  23916415.845 8 101198181.80808
C32  24883088.408 8 130761512.35808  24883095.371 9  97646610.78609  24883094.645 8 129572802.47808  24883095.052 8 105288517.80808
> 2022 12 01 00 15  0.0000000  0 16
C01                                                                  37979549.110 7 197769478.45707  37979549.464 8 160703902.45808
C02                                                                  38535711.866 7 200665564.66707  38535712.331 8 163057209.73008
C03                                                                  37665983.961 7 196136662.77307  37665984.377 8 159377105.96908
C04                                                                  38975071.458 7 202953425.71907  38975071.847 8 164916282.43208
C05                                                                  39896848.017 7 207753358.47107  39896848.477 8 168816621.97008
C06  38665368.789 8 203187885.54008  38665375.742 9 151731239.36709  38665375.059 7 201340753.25307  38665375.432 8 163605856.57708
C07  35903783.682 8 188675655.84808  35903790.637 9 140894186.22109  35903789.888 7 186960455.52807  35903790.258 8 151920685.92408
C09  37172151.296 8 195340973.72308  37172158.271 9 145871533.23709  37172157.596 7 193565178.99707  37172157.959 8 157287564.75808
C10  35918602.396 8 188753530.79808  35918609.386 9 140952338.10109  35918608.680 7 187037620.89807  35918609.041 8 151983390.10308
C11  24839491.883 8 130532409.00208  24839498.862 9  97475528.61009  24839498.155 7 129345784.63907  24839498.458 8 105104046.40508
C18  25179948.167 8 132321520.88508  25179955.159 9  98811553.22409  25179954.501 7 131118630.29107  25179954.813 8 106544628.71408
C19  25083628.983 8 131815359.78408  25083635.897 9  98433574.77909  25083635.159 7 130617070.75007  25083635.600 8 106137070.50608
C25  24110988.808 8 126704101.44108  24110995.773 9  94616726.01709  24110995.092 7 125552278.37807  24110995.456 8 102021511.82808
C26  21749637.656 8 114295116.43608  21749644.626 9  85350276.92309  21749643.941 7 113256103.18907  21749644.299 8  92029862.26608
C27  23927880.884 8 125741860.58208  23927887.796 9  93898171.02309  23927887.152 7 124598787.14707  23927887.484 8 101246722.09908
C32  24863371.826 8 130657900.77808  24863378.760 9  97569238.50609  24863378.093 7 129470132.82407  24863378.422 8 105205090.30308
> 2022 12 01 00 15 30.0000000  0 16
C01                                                                  37979460.576 8 197769017.51708  37979460.952 8 160703527.90708
C02                                                                  38535711.003 8 200665559.69008  38535711.428 8 163057205.69208
C03                                                                  37665715.927 8 196135266.82708  37665716.316 8 159375971.64708
C04                                                                  38975022.811 8 202953172.53708  38975023.263 8 164916076.70008
C05                                                                  39896846.192 8 207753348.77908  39896846.537 8 168816614.09408
C06  38675336.364 8 203240265.61108  38675343.391 9 151770354.35809  38675342.700 8 201392657.13808  38675343.033 8 163648032.74108
C07  35904683.025 8 188680382.44708  35904690.096 9 140897715.82509  35904689.241 8 186965139.15608  35904689.710 8 151924491.75608
C09  37168366.732 8 195321085.64408  37168373.695 9 145856681.75009  37168373.026 8 193545471.72408  37168373.393 8 157271550.98308
C10  35919977.491 8 188760756.96708  35919984.479 9 140957734.26409  35919983.820 8 187044781.37208  35919984.140 8 151989208.58108
C11  24852849.875 8 130602605.79008  24852856.846 9  97527948.29009  24852856.053 8 129415343.29208  24852856.471 8 105160568.51308
C18  25180831.198 8 132326160.87908  25180838.074 9  98815018.15409  25180837.341 8 131123228.09808  25180837.789 8 106548364.81308
C19  25098732.835 8 131894731.36908  25098739.782 9  98492845.76509  25098739.155 8 130695720.77508  25098739.514 8 106200980.09808
C25  24098646.705 8 126639242.89108  24098653.610 9  94568292.68109  24098653.077 8 125488009.44608  24098653.284 8 101969288.06308
C26  21749090.197 8 114292239.56708  21749097.182 9  85348128.60909  21749096.588 8 113253252.46808  21749096.839 8  92027545.81908
C27  23939375.537 8 125802265.76308  23939382.503 9  93943278.78909  23939381.881 8 124658643.19408  23939382.236 8 101295360.04308
C32  24843669.012 8 130554361.79508  24843675.956 9  97491920.43309  24843675.185 8 129367535.09908  24843675.580 8 105121721.25108
> 2022 12 01 00 16  0.0000000  0 16
C01                                                                  37979371.935 8 197768556.24208  37979372.343 8 160703153.07808
C02                                                                  38535709.934 8 200665553.71508  38535710.341 8 163057200.83608
C03                                                                  37665447.053 8 196133866.70408  37665447.420 8 159374833.92808
C04                                                                  38974974.200 8 202952919.37508  38974974.607 8 164915870.98408
C05                                                                  39896844.390 8 207753339.02908  39896844.726 8 168816606.16708
C06  38685315.206 8 203292704.79108  38685322.194 9 151809513.48309  38685321.461 8 201444619.60208  38685321.871 8 163690256.49208
C07  35905580.952 8 188685100.59208  35905587.939 9 140901239.11509  35905587.167 8 186969814.41008  35905587.514 8 151928290.77708
C09  37164600.615 8 195301294.90208  37164607.639 9 145841902.94909  37164606.971 8 193525860.90108  37164607.327 8 157255615.58208
C10  35921374.517 8 188768098.46708  35921381.520 9 140963216.55809  35921380.788 8 187052056.13908  35921381.180 8 151995119.91708
C11  24866251.862 8 130673033.54308  24866258.811 9  97580540.44209  24866258.029 8 129485130.81708  24866258.437 8 105217276.58608
C18  25181803.637 8 132331271.40908  25181810.616 9  98818834.46009  25181809.908 8 131128292.17108  25181810.281 8 106552479.78508
C19  25113864.547 8 131974249.05808  25113871.515 9  98552225.85809  25113870.779 8 130774515.58208  25113871.204 8 106265007.32708
C25  24086318.871 8 126574460.13908  24086325.795 9  94519915.94909  24086325.086 8 125423815.63008  24086325.529 8 101917125.32508
C26  21748580.998 8 114289563.72808  21748587.986 9  85346130.41909  21748587.301 8 113250600.95008  21748587.637 8  92025391.24508
C27  23950893.386 8 125862792.30008  23950900.342 9  93988477.17709  23950899.633 8 124718619.49308  23950900.032 8 101344095.69508
C32  24823980.418 8 130450897.88608  24823987.427 9  97414658.42609  24823986.698 8 129265011.77308  24823987.057 8 105038412.64508
> 2022 12 01 00 16 30.0000000  0 16
C01                                                                  37979283.321 8 197768094.51108  37979283.711 8 160702777.88808
C02                                                                  38535708.503 8 200665546.63208  38535708.906 8 163057195.07108
C03                                                                  37665177.365 8 196132462.29208  37665177.727 8 159373692.72608
C04                                                                  38974925.598 8 202952666.13408  38974925.938 8 164915665.20108
C05                                                                  39896842.481 8 207753329.08808  39896842.830 8 168816598.09708
C06  38695305.197 8 203345202.47608  38695312.160 9 151848716.30109  38695311.471 8 201496640.03808  38695311.863 8 163732527.36108
C07  35906477.126 8 188689809.92508  35906484.052 9 140904755.82209  35906483.279 8 186974480.92508  35906483.697 8 151932082.70908
C09  37160853.073 8 195281601.17808  37160860.050 9 145827196.59709  37160859.335 8 193506346.21908  37160859.742 8 157239758.30208
C10  35922793.517 8 188775555.50508  35922800.526 9 140968785.11809  35922799.900 8 187059445.37908  35922800.195 8 152001124.28608
C11  24879697.268 8 130743689.68708  24879704.236 9  97633303.14609  24879703.446 8 129555144.65008  24879703.849 8 105274168.56408
C18  25182865.556 8 132336851.78108  25182872.513 9  98823001.62209  25182871.858 8 131133821.81708  25182872.195 8 106556973.07308
C19  25129023.587 8 132053910.21308  25129030.528 9  98611713.08409  25129029.899 8 130853452.55108  25129030.217 8 106329150.08108
C25  24074005.645 8 126509753.44808  24074012.559 9  94471596.02009  24074011.963 8 125359697.18708  24074012.270 8 101865023.83308
C26  21748110.082 8 114287089.14708  21748117.061 9  85344282.51609  21748116.415 8 113248148.86108  21748116.727 8  92023398.72108
C27  23962434.235 8 125923440.09208  23962441.212 9  94033766.10809  23962440.535 8 124778715.94108  23962440.929 8 101392928.98308
C32  24804306.578 8 130347511.36308  24804313.600 9  97337454.19809  24804312.825 8 129162565.12108  24804313.270 8 104955166.35308
> 2022 12 01 00 17  0.0000000  0 16
C01                                                                  37979194.609 7 197767632.45407  37979194.980 8 160702402.43008
C02                                                                  38535707.050 7 200665538.54607  38535707.403 8 163057188.50408
C03                                                                  37664906.899 8 196131053.71408  37664907.217 8 159372548.14308
C04                                                                  38974876.965 7 202952412.91907  38974877.332 8 164915459.44508
C05                                                                  39896840.527 7 207753319.09407  39896840.911 8 168816589.96908
C06  38705306.278 8 203397758.32108  38705313.179 9 151887962.54509  38705312.608 8 201548718.10008  38705312.918 8 163774845.05108
C07  35907371.559 8 188694510.33208  35907378.540 9 140908265.86709  35907377.773 8 186979138.60608  35907378.137 8 151935867.45108
C09  37157123.931 8 195262004.40508  37157130.904 9 145812562.64309  37157130.229 7 193486927.59907  37157130.587 8 157223979.08408
C10  35924234.629 8 188783128.50608  35924241.637 9 140974440.28409  35924240.929 7 187066949.54007  35924241.325 8 152007222.02408
C11  24893185.712 8 130814571.88208  24893192.657 9  97686234.65109  24893192.002 7 129625382.48707  24893192.271 8 105331242.55808
C18  25184016.811 8 132342901.52408  25184023.738 9  98827519.28609  25184023.075 7 131139816.55707  25184023.438 8 106561844.29708
C19  25144209.398 8 132133712.42908  25144216.386 9  98671305.64709  25144215.677 7 130932529.29507  25144216.078 8 106393406.41108
C25  24061706.851 8 126445123.34208  24061713.898 9  94423333.27509  24061713.098 7 125295654.62407  24061713.580 8 101812984.00608
C26  21747677.549 8 114284816.30008  21747684.567 9  85342585.25909  21747683.855 7 113245896.66807  21747684.248 8  92021568.62908
C27  23973998.248 8 125984209.27308  23974005.223 9  94079145.69209  23974004.612 7 124838932.67407  23974004.941 8 101441860.01108
C32  24784648.035 8 130244204.76008  24784655.049 9  97260309.66009  24784654.256 7 129060197.67307  24784654.664 8 104871984.41108
> 2022 12 01 00 17 30.0000000  0 16
C01                                                                  37979105.780 8 197767169.99108  37979106.174 8 160702026.63908
C02                                                                  38535705.386 8 200665529.38008  38535705.583 8 163057181.06008
C03                                                                  37664635.520 8 196129640.90208  37664635.905 8 159371400.11908
C04                                                                  38974828.282 8 202952159.65308  38974828.689 8 164915253.64908
C05                                                                  39896838.599 8 207753308.95408  39896838.931 8 168816581.73408
C06  38715318.265 8 203450371.75908  38715325.257 9 151927251.80209  38715324.526 8 201600853.23508  38715324.902 8 163817209.11608
C07  35908264.286 8 188699201.50108  35908271.221 9 140911769.01609  35908270.510 8 186983787.12608  35908270.856 8 151939644.75708
C09  37153413.241 8 195242504.30808  37153420.178 9 145798000.88309  37153419.482 8 193467604.77408  37153419.867 8 157208277.70908
C10  35925697.898 8 188790817.71908  35925704.853 9 140980182.22609  35925704.205 8 187074568.84608  35925704.525 8 152013413.33808
C11  24906716.669 8 130885677.58908  24906723.633 9  97739333.07209  24906722.832 8 129695841.79908  24906723.241 8 105388496.52408
C18  25185257.148 8 132349419.94108  25185264.126 9  98832386.93109  25185263.434 8 131146275.71208  25185263.863 8 106567092.88508
C19  25159421.537 8 132213653.09408  25159428.562 9  98731001.60009  25159427.893 8 131011743.22808  25159428.280 8 106457774.22508
C25  24049422.806 8 126380570.12808  24049429.801 9  94375127.95709  24049429.111 8 125231688.25708  24049429.505 8 101761006.09508
C26  21747283.501 8 114282745.44808  21747290.500 9  85341038.84409  21747289.755 8 113243844.63908  21747290.193 8  92019901.19008
C27  23985585.333 8 126045099.78308  23985592.298 9  94124615.88109  23985591.679 8 124899269.63508  23985591.996 8 101490888.73808
C32  24765005.044 8 130140980.42908  24765012.083 9  97183226.55609  24765011.395 8 128957911.74208  24765011.735 8 104788868.71908
> 2022 12 01 00 18  0.0000000  0 16
C01                                                                  37979016.969 8 197766707.15608  37979017.269 8 160701650.55008
C02                                                                  38535703.200 8 200665519.18608  38535703.634 8 163057172.77308
C03                                                                  37664363.386 8 196128223.89908  37664363.780 8 159370248.68808
C04                                                                  38974779.689 8 202951906.38208  38974780.078 8 164915047.84808
C05                                                                  39896836.650 8 207753298.71208  39896836.900 8 168816573.40508
C06  38725341.163 8 203503042.34508  38725348.102 9 151966583.73509  38725347.438 8 201653045.00108  38725347.798 8 163859619.20208
C07  35909155.201 8 188703883.24208  35909162.166 9 140915265.12009  35909161.393 8 186988426.30608  35909161.752 8 151943414.47208
C09  37149720.827 8 195223100.71908  37149727.778 9 145783511.19209  37149727.135 8 193448377.58608  37149727.483 8 157192654.04508
C10  35927183.256 8 188798623.48808  35927190.241 9 140986011.21209  35927189.555 8 187082303.65708  35927189.911 8 152019698.50308
C11  24920289.694 8 130957004.38008  24920296.652 9  97792596.58509  24920295.990 8 129766520.18808  24920296.293 8 105445928.50408
C18  25186586.680 8 132356406.43608  25186593.652 9  98837604.11909  25186592.899 8 131153198.69108  25186593.328 8 106572718.37908
C19  25174659.657 8 132293729.73208  25174666.654 9  98790799.08609  25174665.998 8 131091091.90308  25174666.351 8 106522251.51908
C25  24037153.468 8 126316094.24808  24037160.469 9  94326980.38309  24037159.747 8 125167798.52308  24037160.153 8 101709090.45408
C26  21746927.982 8 114280876.99508  21746934.942 9  85339643.57109  21746934.306 8 113241993.16308  21746934.616 8  92018396.71108
C27  23997195.480 8 126106111.67808  23997202.468 9  94170176.70909  23997201.843 8 124959726.87908  23997202.177 8 101540015.19508
C32  24745378.268 8 130037840.83008  24745385.277 9  97106206.72809  24745384.578 8 128855709.77608  24745384.937 8 104705821.24908
> 2022 12 01 00 18 30.0000000  0 16
C01                                                                  37978927.894 8 197766243.95808  37978928.324 8 160701274.15408
C02                                                                  38535701.049 8 200665507.94708  38535701.501 8 163057163.64008
C03                                                                  37664090.497 8 196126802.70408  37664090.864 8 159369093.84808
C04                                                                  38974731.105 8 202951653.10508  38974731.436 8 164914842.03208
C05                                                                  39896834.772 8 207753288.36308  39896834.996 8 168816564.99108
C06  38735374.773 8 203555769.60708  38735381.758 9 152005957.98909  38735381.118 8 201705292.92708  38735381.448 8 163902074.91608
C07  35910044.291 8 188708555.32208  35910051.207 9 140918754.00909  35910050.361 8 186993055.91208  35910050.806 8 151947176.40208
C09  37146046.787 8 195203793.44908  37146053.757 9 145769093.42409  37146053.087 8 193429245.84308  37146053.428 8 157177107.92708
C10  35928690.894 8 188806546.12508  35928697.861 9 140991927.46709  35928697.120 8 187090154.27308  35928697.523 8 152026077.77208
C11  24933904.255 8 131028549.78108  24933911.303 9  97846023.34809  24933910.572 8 129837415.19508  24933910.939 8 105503536.50208
C18  25188005.127 8 132363860.36108  25188012.084 9  98843170.36409  25188011.415 8 131160584.86008  25188011.749 8 106578720.23808
C19  25189923.109 8 132373939.80508  25189930.111 9  98850696.22109  25189929.386 8 131170572.79008  25189929.833 8 106586836.25008
C25  24024898.914 8 126251696.10808  24024905.900 9  94278890.86209  24024905.228 8 125103985.82008  24024905.584 8 101657237.40108
C26  21746610.961 8 114279211.29008  21746617.959 9  85338399.70009  21746617.310 8 113240342.60108  21746617.638 8  92017055.49108
